[{"StationID":"103","lat":24.18228,"lon":24.18228,"name":"舊社","ename":"Jiushe","FirstLast":[{"To":"103a","Time":["06:07","00:29"]},{"To":"119","Time":["06:02","00:02"]}]},{"StationID":"103a","lat":24.18913,"lon":24.18913,"name":"北屯總站","ename":"Beitun Main Station","FirstLast":[{"To":"119","Time":["06:00","00:00"]}]},{"StationID":"104","lat":24.1808,"lon":24.1808,"name":"松竹","ename":"Songzhu","FirstLast":[{"To":"103a","Time":["06:04","00:27"]},{"To":"119","Time":["06:04","00:03"]}]},{"StationID":"105","lat":24.17124,"lon":24.17124,"name":"四維國小","ename":"Sihwei Elementary School","FirstLast":[{"To":"103a","Time":["06:00","00:25"]},{"To":"119","Time":["06:00","00:06"]}]},{"StationID":"106","lat":24.17219,"lon":24.17219,"name":"文心崇德","ename":"Wenxin Chongde","FirstLast":[{"To":"103a","Time":["06:09","00:23"]},{"To":"119","Time":["06:01","00:08"]}]},{"StationID":"107","lat":24.17368,"lon":24.17368,"name":"文心中清","ename":"Wenxin Zhongqing","FirstLast":[{"To":"103a","Time":["06:06","00:21"]},{"To":"119","Time":["06:03","00:10"]}]},{"StationID":"108","lat":24.17141,"lon":24.17141,"name":"文華高中","ename":"Wenhua Senior High School","FirstLast":[{"To":"103a","Time":["06:04","00:19"]},{"To":"119","Time":["06:05","00:12"]}]},{"StationID":"109","lat":24.16763,"lon":24.16763,"name":"文心櫻花","ename":"Wenxin Yinghua","FirstLast":[{"To":"103a","Time":["06:02","00:17"]},{"To":"119","Time":["06:07","00:13"]}]},{"StationID":"110","lat":24.16199,"lon":24.16199,"name":"市政府","ename":"Taichung City Hall","FirstLast":[{"To":"103a","Time":["06:00","00:16"]},{"To":"119","Time":["06:00","00:15"]}]},{"StationID":"111","lat":24.15311,"lon":24.15311,"name":"水安宮","ename":"Shui-an Temple","FirstLast":[{"To":"103a","Time":["06:07","00:14"]},{"To":"119","Time":["06:02","00:17"]}]},{"StationID":"112","lat":24.1454,"lon":24.1454,"name":"文心森林公園","ename":"Wenxin Forest Park","FirstLast":[{"To":"103a","Time":["06:06","00:12"]},{"To":"119","Time":["06:04","00:19"]}]},{"StationID":"113","lat":24.1405,"lon":24.1405,"name":"南屯","ename":"Nantun","FirstLast":[{"To":"103a","Time":["06:04","00:11"]},{"To":"119","Time":["06:05","00:20"]}]},{"StationID":"114","lat":24.1326,"lon":24.1326,"name":"豐樂公園","ename":"Feng-le Park","FirstLast":[{"To":"103a","Time":["06:02","00:09"]},{"To":"119","Time":["06:07","00:22"]}]},{"StationID":"115","lat":24.1191,"lon":24.1191,"name":"大慶","ename":"Daqing","FirstLast":[{"To":"103a","Time":["06:00","00:06"]},{"To":"119","Time":["06:00","00:25"]}]},{"StationID":"116","lat":24.1145,"lon":24.1145,"name":"九張犁","ename":"Jiuzhangli","FirstLast":[{"To":"103a","Time":["06:05","00:05"]},{"To":"119","Time":["06:02","00:26"]}]},{"StationID":"117","lat":24.11104,"lon":24.11104,"name":"九德","ename":"Jiude","FirstLast":[{"To":"103a","Time":["06:04","00:03"]},{"To":"119","Time":["06:05","00:28"]}]},{"StationID":"118","lat":24.1089,"lon":24.1089,"name":"烏日","ename":"Wuri","FirstLast":[{"To":"103a","Time":["06:02","00:02"]},{"To":"119","Time":["06:08","00:29"]}]},{"StationID":"119","lat":24.11011,"lon":24.11011,"name":"高鐵臺中站","ename":"HSR Taichung Station","FirstLast":[{"To":"103a","Time":["06:00","00:00"]}]}]